,City,Lat,Lng,Max Temp,Humidity,Cloudiness,Wind Speed,Country,Date
0,Aripuanã,-9.1667,-60.6333,22.5,97,43,0.44,BR,1619232544
1,Provideniya,64.3833,-173.3,3.99,63,31,1.82,RU,1619232544
2,Boyolangu,-8.1181,111.8935,28.67,62,2,2.14,ID,1619232545
3,Aketi,2.7388,23.7833,20.97,99,100,0.66,CD,1619232545
4,Erzin,36.9559,36.2,16.11,58,33,2.45,TR,1619232546
5,Yar-Sale,66.8333,70.8333,0.18,99,98,3.83,RU,1619232546
6,Lorengau,-2.0226,147.2712,27.56,79,93,3.46,PG,1619232546
7,Ushuaia,-54.8,-68.3,6.0,93,75,6.69,AR,1619232547
8,Bengkulu,-3.8004,102.2655,28.16,66,100,0.6,ID,1619232329
9,Gantt,34.8001,-82.4243,12.22,50,1,0.46,US,1619232547
10,Lincoln,40.8,-96.667,12.0,54,1,5.66,US,1619232514
11,Puerto Ayora,-0.7393,-90.3518,25.0,95,13,1.34,EC,1619232547
12,Carnarvon,-24.8667,113.6333,28.0,32,2,2.57,AU,1619232548
13,Griffith,41.5284,-87.4237,12.0,66,90,2.06,US,1619232548
14,Mar del Plata,-38.0023,-57.5575,17.22,88,90,2.06,AR,1619232549
15,Hermanus,-34.4187,19.2345,12.78,91,97,0.45,ZA,1619232320
16,Hilo,19.7297,-155.09,25.0,61,90,5.14,US,1619232549
17,Mataura,-46.1927,168.8643,10.56,92,96,1.3,NZ,1619232549
18,Kapaa,22.0752,-159.319,26.0,65,40,7.2,US,1619232550
19,Ilulissat,69.2167,-51.1,-2.0,74,100,2.06,GL,1619232550
20,Kumul,42.8,93.45,10.61,22,79,5.32,CN,1619232550
21,Rikitea,-23.1203,-134.9692,26.12,74,100,6.62,PF,1619232551
22,Butaritari,3.0707,172.7902,27.34,77,100,2.99,KI,1619232551
23,Atuona,-9.8,-139.0333,26.87,78,22,10.74,PF,1619232551
24,Longyearbyen,78.2186,15.6401,-8.0,67,90,1.54,SJ,1619232552
25,Freeport,40.6576,-73.5832,13.89,33,1,3.6,US,1619232361
26,Nikolayevsk-on-Amur,53.1406,140.73,3.01,57,36,3.72,RU,1619232552
27,Mahébourg,-20.4081,57.7,25.0,88,75,3.6,MU,1619232552
28,Kalemie,-5.9475,29.1947,20.93,88,40,0.43,CD,1619232553
29,Albany,42.6001,-73.9662,7.22,48,3,2.74,US,1619232315
30,Busselton,-33.65,115.3333,23.33,58,24,0.89,AU,1619232553
31,Dikson,73.5069,80.5464,-0.04,98,100,6.74,RU,1619232554
32,Calvià,39.5657,2.5062,10.56,73,97,0.45,ES,1619232554
33,Vaini,-21.2,-175.2,29.0,79,20,3.09,TO,1619232554
34,Saskylakh,71.9167,114.0833,1.05,96,100,8.83,RU,1619232404
35,Ponta do Sol,32.6667,-17.1,15.56,80,21,1.79,PT,1619232308
36,Avarua,-21.2078,-159.775,27.0,78,75,7.2,CK,1619232339
37,Khatanga,71.9667,102.5,0.74,97,100,8.46,RU,1619232387
38,Nakhon Phanom,17.3333,104.4167,30.0,74,40,2.57,TH,1619232555
39,Hofn,64.2539,-15.2082,7.07,76,100,2.09,IS,1619232555
40,Arraial do Cabo,-22.9661,-42.0278,22.72,80,41,6.24,BR,1619232556
41,Lagoa,39.05,-27.9833,14.03,72,44,14.84,PT,1619232556
42,Alice Springs,-23.7,133.8833,23.33,32,0,4.63,AU,1619232346
43,Requena,39.4883,-1.1004,12.78,92,100,0.45,ES,1619232557
44,São João da Barra,-21.6403,-41.0511,20.13,88,0,3.09,BR,1619232557
45,Saint Paul Harbor,57.79,-152.4072,5.0,81,90,3.6,US,1619232557
46,Tilichiki,60.4667,166.1,-1.52,88,28,0.94,RU,1619232557
47,Hobart,-42.8794,147.3294,16.0,48,75,7.2,AU,1619232558
48,Cape Town,-33.9258,18.4232,15.0,82,0,4.12,ZA,1619232558
49,Mtwara,-10.2667,40.1833,23.25,95,97,6.07,TZ,1619232559
50,Nurota,40.5614,65.6886,13.0,62,100,4.12,UZ,1619232559
51,Ürümqi,43.801,87.6005,2.0,64,75,4.0,CN,1619232485
52,Hong Kong,22.2855,114.1577,28.0,65,20,8.23,HK,1619232303
53,Broome,42.2506,-75.833,9.0,43,1,3.09,US,1619232559
54,Puerto Escondido,15.85,-97.0667,27.21,73,100,1.94,MX,1619232560
55,Port Alfred,-33.5906,26.891,17.9,74,0,6.42,ZA,1619232311
56,East London,-33.0153,27.9116,16.59,75,2,3.26,ZA,1619232367
57,Hasaki,35.7333,140.8333,21.11,48,75,1.54,JP,1619232560
58,Iquitos,-3.7481,-73.2472,25.0,94,40,1.03,PE,1619232561
59,Sosnovo-Ozerskoye,52.5249,111.5418,6.7,15,100,2.75,RU,1619232561
60,Narsaq,60.9167,-46.05,4.0,65,0,1.03,GL,1619232561
61,Bluff,-46.6,168.3333,10.56,92,64,6.65,NZ,1619232322
62,San Patricio,28.017,-97.5169,26.0,89,90,6.17,US,1619232522
63,Punta Arenas,-53.15,-70.9167,5.0,100,40,1.54,CL,1619232274
64,Oranjestad,12.524,-70.027,27.0,78,20,9.77,AW,1619232561
65,Tuktoyaktuk,69.4541,-133.0374,-7.0,73,75,4.63,CA,1619232562
66,Dunedin,-45.8742,170.5036,13.33,80,100,3.13,NZ,1619232562
67,São Filipe,14.8961,-24.4956,21.41,76,16,3.65,CV,1619232563
68,Qaanaaq,77.484,-69.3632,-8.22,79,100,2.43,GL,1619232563
69,Elbistan,38.2059,37.1983,12.44,36,39,1.09,TR,1619232563
70,Jamestown,42.097,-79.2353,7.0,49,75,5.66,US,1619232361
71,Beloha,-25.1667,45.05,19.9,78,0,4.65,MG,1619232564
72,Nome,64.5011,-165.4064,6.0,61,1,1.09,US,1619232564
73,Faanui,-16.4833,-151.75,26.74,75,100,4.53,PF,1619232565
74,Santander Jiménez,24.2167,-98.4667,24.78,80,45,4.54,MX,1619232565
75,New Norfolk,-42.7826,147.0587,15.56,73,96,2.24,AU,1619232565
76,Souillac,-20.5167,57.5167,25.0,88,75,3.6,MU,1619232308
77,Nikolskoye,59.7035,30.7861,1.67,93,75,1.95,RU,1619232310
78,Laguna,38.421,-121.4238,17.0,55,1,7.72,US,1619232566
79,Bethel,41.3712,-73.414,10.56,53,1,2.57,US,1619232566
80,Castro,-24.7911,-50.0119,11.61,88,8,1.44,BR,1619232222
81,Hammerfest,70.6634,23.6821,-1.0,69,90,5.14,NO,1619232388
82,Severo-Kuril'sk,50.6789,156.125,3.16,88,97,3.33,RU,1619232567
83,Burns Lake,54.2331,-125.7533,11.0,24,80,2.06,CA,1619232567
84,Prado,-17.3411,-39.2208,23.67,85,18,2.46,BR,1619232567
85,Egvekinot,66.3167,-179.1667,-0.2,87,100,1.33,RU,1619232568
86,Surin,14.8818,103.4936,33.33,68,100,3.48,TH,1619232568
87,Ribeira Grande,38.5167,-28.7,14.65,78,99,12.72,PT,1619232341
88,Severnyy,50.677,36.5532,3.0,93,75,7.0,RU,1619232568
89,Epe,6.5841,3.9834,26.03,91,97,2.48,NG,1619232569
90,Saquena,-4.6667,-73.5167,22.96,97,43,0.93,PE,1619232569
91,Mount Gambier,-37.8333,140.7667,14.0,94,75,4.63,AU,1619232570
92,Anshun,26.25,105.9333,20.78,77,100,2.76,CN,1619232570
93,Dickinson,29.4608,-95.0513,24.0,94,90,8.75,US,1619232571
94,Bathsheba,13.2167,-59.5167,26.0,65,20,7.72,BB,1619232571
95,Anzio,41.4853,12.6179,12.78,96,2,0.45,IT,1619232571
96,Carutapera,-1.195,-46.02,24.29,94,100,2.13,BR,1619232572
97,Sukhobuzimskoye,56.5,93.2728,4.0,30,0,6.0,RU,1619232572
98,Port Lincoln,-34.7333,135.8667,17.86,59,68,3.71,AU,1619232310
99,Bredasdorp,-34.5322,20.0403,7.0,100,96,0.7,ZA,1619232573
100,Dhārchula,29.85,80.5333,20.71,40,0,0.28,IN,1619232573
101,Şile,41.1754,29.6133,14.0,82,40,2.57,TR,1619232574
102,Hastings,50.8552,0.5729,7.0,93,80,5.14,GB,1619232574
103,Hithadhoo,-0.6,73.0833,28.07,69,39,1.61,MV,1619232574
104,Ancud,-41.8697,-73.8203,8.89,100,0,1.43,CL,1619232321
105,Sinnamary,5.3833,-52.95,25.3,89,100,5.64,GF,1619232575
106,Barrow,71.2906,-156.7887,-2.0,74,1,1.54,US,1619232519
107,Iqaluit,63.7506,-68.5145,-2.0,93,90,1.54,CA,1619232430
108,Bambous Virieux,-20.3428,57.7575,25.0,88,75,3.6,MU,1619232575
109,Lázaro Cárdenas,17.9583,-102.2,24.82,69,94,1.49,MX,1619232411
110,Taoudenni,22.6783,-3.9836,29.46,8,0,3.75,ML,1619232448
111,Gravdal,68.1214,13.5031,1.56,59,60,8.17,NO,1619232576
112,Aklavik,68.2191,-135.0107,3.0,51,79,2.57,CA,1619232576
113,Geraldton,-28.7667,114.6,28.0,30,2,2.06,AU,1619232576
114,Morón,-34.6534,-58.6198,18.89,98,100,1.06,AR,1619232577
115,Itarema,-2.9248,-39.9167,25.12,87,54,3.8,BR,1619232577
116,Marsá Maţrūḩ,31.3525,27.2453,13.0,88,40,3.73,EG,1619232577
117,Tambacounda,13.7539,-13.7586,31.0,29,36,4.12,SN,1619232578
118,Betlitsa,54.0095,33.9588,0.38,89,95,1.91,RU,1619232578
119,Coquimbo,-29.9533,-71.3436,13.0,76,0,1.54,CL,1619232578
120,Acapulco de Juárez,16.8634,-99.8901,27.0,78,40,2.06,MX,1619232440
121,Mangochi,-14.4782,35.2645,18.09,90,5,2.57,MW,1619232580
122,Kavieng,-2.5744,150.7967,27.23,75,96,1.52,PG,1619232580
123,Cockburn Town,21.4612,-71.1419,25.67,78,5,7.72,TC,1619232580
124,Clyde River,70.4692,-68.5914,-12.0,100,90,1.03,CA,1619232581
125,Yellowknife,62.456,-114.3525,-9.0,57,75,5.14,CA,1619232581
126,George Town,5.4112,100.3354,28.0,94,40,2.06,MY,1619232581
127,Klaksvík,62.2266,-6.589,6.0,100,90,2.57,FO,1619232582
128,Zavitinsk,50.1167,129.45,8.7,23,4,8.48,RU,1619232582
129,Cidreira,-30.1811,-50.2056,20.91,82,1,7.24,BR,1619232582
130,Bandarbeyla,9.4942,50.8122,28.17,74,87,2.22,SO,1619232583
131,Contamana,-7.3333,-75.0167,23.74,90,55,1.06,PE,1619232468
132,Bonthe,7.5264,-12.505,25.99,85,100,2.35,SL,1619232583
133,Ugoofaaru,5.6667,73.0,28.82,71,84,3.58,MV,1619232584
134,Tasiilaq,65.6145,-37.6368,3.0,60,75,9.26,GL,1619232584
135,Ribeira Brava,32.65,-17.0667,15.56,78,13,6.46,PT,1619232584
136,Dologon,7.8408,125.0444,30.2,59,99,2.32,PH,1619232585
137,Kungurtug,50.5994,97.5228,-0.37,82,100,0.8,RU,1619232585
138,Tarquinia,42.2482,11.7553,8.89,71,0,4.27,IT,1619232585
139,Poplar Bluff,36.757,-90.3929,17.0,63,20,1.54,US,1619232586
140,Kajaani,64.2273,27.7285,1.0,100,90,2.57,FI,1619232379
141,Kyren,51.6828,102.1408,0.54,87,100,0.54,RU,1619232586
142,Tigzirt,36.8886,4.1198,12.8,78,25,4.51,DZ,1619232586
143,Lüderitz,-26.6481,15.1594,16.78,78,3,3.33,NA,1619232587
144,Necochea,-38.5473,-58.7368,15.0,98,100,0.86,AR,1619232587
145,Pangnirtung,66.1451,-65.7125,-0.61,89,100,2.98,CA,1619232555
146,Casian,11.035,119.7136,28.81,69,100,1.79,PH,1619232588
147,Daru,-9.0763,143.2092,29.91,66,58,2.84,PG,1619232588
148,Chicama,-7.8447,-79.1469,20.23,82,11,2.25,PE,1619232588
149,Port Hedland,-20.3167,118.5667,33.0,14,0,8.75,AU,1619232320
150,Usinsk,65.9939,57.5281,2.77,87,25,2.35,RU,1619232589
151,Singleton,-32.5667,151.1833,22.22,47,43,1.45,AU,1619232589
152,Waipawa,-41.4122,175.5153,20.0,60,1,6.69,NZ,1619232590
153,Ambon City,-3.6954,128.1814,32.0,66,40,1.54,ID,1619232590
154,Ayan,56.45,138.1667,1.71,64,99,2.37,RU,1619232590
155,Merta,26.65,74.0333,27.43,31,4,5.02,IN,1619232591
156,Saint-Philippe,-21.3585,55.7679,24.0,73,0,4.12,RE,1619232591
157,Thompson,55.7435,-97.8558,-6.0,42,20,3.6,CA,1619232592
158,Lowestoft,52.4752,1.7516,6.67,86,100,0.51,GB,1619232592
159,Lapua,62.9693,23.0088,0.56,96,100,0.45,FI,1619232592
160,Marsh Harbour,26.5412,-77.0636,23.03,70,72,6.57,BS,1619232554
161,Torbay,47.6666,-52.7314,3.89,100,90,7.2,CA,1619232593
162,San Quintín,30.4833,-115.95,14.44,80,16,6.73,MX,1619232593
163,Sumbe,-11.2061,13.8437,25.91,89,100,2.29,AO,1619232593
164,Grindavik,63.8424,-22.4338,8.0,93,75,6.69,IS,1619232594
165,Manokwari,-0.8667,134.0833,27.99,76,66,2.38,ID,1619232594
166,Tvøroyri,61.5556,-6.8111,6.0,100,90,2.57,FO,1619232594
167,Petropavlovsk-Kamchatskiy,53.0452,158.6483,5.0,87,83,3.0,RU,1619232595
168,Soto la Marina,23.7667,-98.2167,25.56,79,68,4.02,MX,1619232595
169,Abu Samrah,35.3029,37.1841,17.99,30,64,1.83,SY,1619232595
170,Coahuayana Viejo,18.7333,-103.6833,22.72,73,41,0.27,MX,1619232319
171,Salym,60.0625,71.4789,4.68,81,100,3.04,RU,1619232596
172,Bintulu,3.1667,113.0333,30.0,74,20,2.57,MY,1619232596
173,Luanda,-8.8368,13.2343,25.0,88,40,3.09,AO,1619232394
174,Whitehorse,60.7161,-135.0538,9.0,25,20,2.06,CA,1619232418
175,Great Yarmouth,52.6083,1.7305,6.67,86,100,0.51,GB,1619232486
176,Aykhal,66.0,111.5,0.83,97,25,4.24,RU,1619232597
177,Boddam,57.4667,-1.7833,4.44,93,72,0.51,GB,1619232598
178,Buala,-8.145,159.5921,29.33,69,56,2.36,SB,1619232598
179,Lima,-12.0432,-77.0282,19.0,82,0,4.63,PE,1619232599
180,Butembo,0.15,29.2833,13.13,95,80,1.06,CD,1619232599
181,Olafsvik,64.8945,-23.7142,6.18,95,100,5.2,IS,1619232375
182,Camocim,-2.9022,-40.8411,24.27,92,72,3.83,BR,1619232599
183,San Miguel de Tucumán,-26.8241,-65.2226,19.0,100,90,2.06,AR,1619232600
184,Cecina,43.3128,10.524,11.67,80,0,1.34,IT,1619232600
185,San Onofre,9.7359,-75.5263,26.66,77,76,3.06,CO,1619232600
186,Nouadhibou,20.931,-17.0347,18.0,88,0,7.2,MR,1619232601
187,Maragogi,-9.0122,-35.2225,25.41,81,27,3.49,BR,1619232601
188,Padang,-0.9492,100.3543,29.0,70,20,1.03,ID,1619232390
189,Meulaboh,4.1363,96.1285,27.25,77,100,1.66,ID,1619232374
190,Viedma,-40.8135,-62.9967,14.97,55,4,5.31,AR,1619232026
191,Eyl,7.9803,49.8164,28.08,74,83,2.97,SO,1619232602
192,Luganville,-15.5333,167.1667,29.09,73,83,5.0,VU,1619232602
193,Caravelas,-17.7125,-39.2481,22.91,87,6,2.1,BR,1619232603
194,Srikakulam,18.3,83.9,31.41,51,43,2.45,IN,1619232603
195,Ondjiva,-17.0667,15.7333,16.13,35,11,1.26,AO,1619232603
196,Fortuna,40.5982,-124.1573,10.0,93,20,1.14,US,1619232481
197,Norman Wells,65.282,-126.8329,1.0,44,75,4.12,CA,1619232605
198,Margate,51.3813,1.3862,7.78,77,91,0.45,GB,1619232403
199,Airai,-8.9266,125.4092,24.04,47,6,1.65,TL,1619232606
200,Zhigansk,66.7697,123.3711,-4.47,74,100,4.09,RU,1619232607
201,Asău,46.4333,26.4,1.67,65,48,1.95,RO,1619232607
202,Kindu,-2.95,25.95,20.15,97,100,0.66,CD,1619232413
203,Turki,51.987,43.2731,7.04,92,55,3.71,RU,1619232607
204,Lososina,48.9975,140.3106,3.79,70,96,6.21,RU,1619232608
205,Zyryanka,65.75,150.85,-8.85,89,100,10.08,RU,1619232608
206,Patnongon,10.9132,121.9937,28.59,71,76,2.84,PH,1619232608
207,Bossangoa,6.4926,17.4552,21.48,94,100,2.28,CF,1619232609
208,Chapais,49.7834,-74.8492,6.0,42,1,4.12,CA,1619232609
209,Kedgwick,47.6446,-67.3434,0.76,81,99,4.19,CA,1619232610
210,Lavrentiya,65.5833,-171.0,0.72,83,3,1.84,RU,1619232610
211,Port Elizabeth,-33.918,25.5701,13.0,94,90,2.57,ZA,1619232610
212,Soria,41.6667,-2.6667,7.78,86,98,0.89,ES,1619232611
213,Vila Velha,-20.3297,-40.2925,24.0,78,75,2.06,BR,1619232337
214,Belyy Yar,53.6039,91.3903,6.0,33,0,3.0,RU,1619232611
215,Zambezi,-13.5432,23.1047,15.76,73,53,2.03,ZM,1619232612
216,Kupang,-10.1667,123.5833,29.99,60,2,2.33,ID,1619232612
217,Kangaatsiaq,68.3065,-53.4641,-2.99,83,100,1.98,GL,1619232597
218,County Wicklow,53.0,-6.4167,9.44,87,0,1.54,IE,1619232612
219,Kirakira,-10.4544,161.9205,29.6,67,62,2.09,SB,1619232613
220,Salihorsk,52.7876,27.5415,-0.99,92,38,6.12,BY,1619232613
221,Waspán,14.7419,-83.9717,23.02,90,8,1.61,NI,1619232613
222,Kolokani,13.5728,-8.0339,29.66,34,71,2.64,ML,1619232614
223,Mount Isa,-20.7333,139.5,30.0,25,17,7.72,AU,1619232614
224,Biak,-0.9131,122.8766,26.99,76,93,1.74,ID,1619232614
225,Witu,-2.3889,40.4382,25.08,86,17,2.77,KE,1619232615
226,Hīt,33.6416,42.8251,23.65,13,51,3.97,IQ,1619232616
227,Kutum,14.2,24.6667,24.56,17,45,4.33,SD,1619232617
228,Cabo San Lucas,22.8909,-109.9124,22.78,56,20,1.54,MX,1619232526
229,Lydenburg,-25.0978,30.4597,7.78,80,28,0.89,ZA,1619232617
230,Salalah,17.0151,54.0924,28.0,74,40,1.03,OM,1619232617
231,Mayo,38.8876,-76.5119,11.11,72,38,3.08,US,1619232592
232,São Miguel do Iguaçu,-25.3481,-54.2378,21.0,83,0,3.09,BR,1619232618
233,Kyshtovka,56.555,76.6271,4.91,51,89,2.31,RU,1619232618
234,Plouzané,48.3833,-4.6167,13.0,44,0,4.63,FR,1619232619
235,Presidencia Roque Sáenz Peña,-26.7852,-60.4388,19.63,94,99,1.99,AR,1619232547
236,Haines Junction,60.7522,-137.5108,11.0,20,14,1.54,CA,1619232418
237,Maceió,-9.6658,-35.7353,23.0,100,0,1.54,BR,1619232619
238,Inhambane,-23.865,35.3833,18.65,88,91,2.77,MZ,1619232620
239,Pitsunda,43.1592,40.3378,11.0,71,75,1.0,GE,1619232620
240,Pampa,35.5362,-100.9599,12.0,66,1,2.06,US,1619232620
241,Nizhniy Tsasuchey,50.5167,115.1333,8.84,12,96,2.13,RU,1619232621
242,Dāmghān,36.1683,54.348,16.47,62,100,0.18,IR,1619232621
243,Cayenne,4.9333,-52.3333,25.0,94,90,3.6,GF,1619232622
244,Urgut,39.4022,67.2431,15.0,44,88,2.06,UZ,1619232622
245,Lompoc,34.6391,-120.4579,12.0,76,4,3.6,US,1619232622
246,Guerrero Negro,27.9769,-114.0611,14.94,79,1,8.85,MX,1619232623
247,El Carmen,8.5106,-73.4478,21.37,85,55,1.74,CO,1619232623
248,Newry,54.1784,-6.3374,6.67,74,100,1.73,GB,1619232623
249,Sterling,39.0062,-77.4286,9.0,53,1,2.06,US,1619232624
250,Isangel,-19.55,169.2667,27.89,75,77,4.86,VU,1619232453
251,Berlevåg,70.8578,29.0864,0.63,74,100,7.1,NO,1619232624
252,Havøysund,70.9963,24.6622,-1.0,69,90,5.14,NO,1619232624
253,Omboué,-1.5746,9.2618,24.89,92,100,1.55,GA,1619232626
254,Scarborough,54.2797,-0.4044,5.56,71,100,0.06,GB,1619232626
255,São Miguel do Tapuio,-5.5036,-41.3233,21.98,92,65,1.78,BR,1619232626
256,Inongo,-1.95,18.2667,21.46,96,100,2.62,CD,1619232627
257,Puerto Colombia,10.9878,-74.9547,27.0,78,0,7.2,CO,1619232627
258,Methóni,36.8197,21.7049,17.22,77,91,2.57,GR,1619232627
259,Honiara,-9.4333,159.95,29.7,69,87,2.34,SB,1619232628
260,Loandjili,-4.7561,11.8578,25.4,91,100,0.48,CG,1619232628
261,Sechura,-5.5569,-80.8222,21.62,71,9,7.21,PE,1619232628
262,Port Hardy,50.6996,-127.4199,10.0,93,90,1.37,CA,1619232629
263,Río Gallegos,-51.6226,-69.2181,10.0,71,90,2.06,AR,1619232484
264,Plateros,23.2167,-102.85,21.0,13,75,5.66,MX,1619232629
265,Muyezerskiy,63.9333,31.65,-0.2,92,20,1.89,RU,1619232629
266,Lermontovka,47.1453,134.3383,11.53,19,100,5.26,RU,1619232630
267,Iisalmi,63.5592,27.1907,1.0,93,90,1.54,FI,1619232630
268,Mitsamiouli,-11.3847,43.2844,27.1,80,83,6.07,KM,1619232630
269,Fuerte Olimpo,-21.0415,-57.8738,25.19,50,80,2.3,PY,1619232631
270,Baie-Comeau,49.2168,-68.1489,4.0,65,40,4.63,CA,1619232632
271,Kaitangata,-46.2817,169.8464,13.33,67,100,2.68,NZ,1619232633
272,Namatanai,-3.6667,152.4333,28.37,69,84,2.43,PG,1619232633
273,Carinhanha,-14.3047,-43.765,24.75,62,28,0.71,BR,1619232633
274,Challans,46.8436,-1.8749,12.0,47,0,3.6,FR,1619232633
275,Nianzishan,47.5167,122.8833,11.06,18,100,3.64,CN,1619232634
276,Saldanha,-33.0117,17.9442,13.0,82,80,3.09,ZA,1619232634
277,Harper,4.375,-7.7169,27.0,83,88,3.54,LR,1619232635
278,Esperance,-33.8667,121.9,21.0,56,100,5.66,AU,1619232635
279,Anloga,5.7947,0.8973,28.0,83,20,6.69,GH,1619232635
280,Sur,22.5667,59.5289,30.63,31,0,2.4,OM,1619232495
281,Udachny,66.4167,112.4,1.19,100,46,4.31,RU,1619232636
282,Bobrovka,54.047,61.7455,7.41,72,100,3.43,RU,1619232636
283,Marabu,4.4148,114.0089,31.0,70,40,1.03,MY,1619232637
284,Chui,-33.6971,-53.4616,18.12,89,12,4.08,UY,1619232637
285,Port Said,31.2565,32.2841,18.0,82,0,5.66,EG,1619232637
286,Jining,35.405,116.5814,15.2,72,100,7.03,CN,1619232638
287,Kristianstad,56.0313,14.1524,2.0,75,2,3.6,SE,1619232638
288,Pevek,69.7008,170.3133,-6.76,85,54,0.9,RU,1619232639
289,Neuwied,50.4333,7.4667,3.89,87,58,1.02,DE,1619232639
290,Shamkhal,43.0596,47.3373,10.0,93,9,3.0,RU,1619232639
291,Padilla,3.2204,-76.3139,21.0,94,75,3.09,CO,1619232640
292,Kidal,18.4411,1.4078,28.3,9,0,3.86,ML,1619232640
293,Chivacoa,10.1603,-68.895,25.0,83,52,4.63,VE,1619232641
294,Beringovskiy,63.05,179.3167,-1.2,91,99,2.6,RU,1619232641
295,Aswān,24.0934,32.907,25.54,12,0,4.94,EG,1619232501
296,Ayr,55.4627,-4.6339,7.0,87,100,6.17,GB,1619232642
297,Paamiut,61.994,-49.6678,-0.13,77,2,1.74,GL,1619232642
298,Kruisfontein,-34.0033,24.7314,15.0,93,93,0.45,ZA,1619232395
299,Derbent,42.0678,48.2899,12.4,69,59,3.46,RU,1619232642
300,Acaraú,-2.8856,-40.12,25.3,87,68,4.23,BR,1619232643
301,Riyadh,24.6877,46.7219,26.0,16,0,2.57,SA,1619232567
302,Touros,-5.1989,-35.4608,25.0,94,40,2.06,BR,1619232397
303,Karabük,41.2049,32.6277,12.57,73,100,0.23,TR,1619232643
304,Santa Rosalía,27.3167,-112.2833,18.23,46,0,1.29,MX,1619232644
305,Cherskiy,68.75,161.3,-2.43,89,100,1.99,RU,1619232628
306,St Helens,53.45,-2.7333,8.33,61,100,2.06,GB,1619232644
307,Alegrete,-29.7831,-55.7919,21.28,62,99,1.67,BR,1619232644
308,Palu,-0.8917,119.8707,32.99,50,35,1.61,ID,1619232645
309,West Wendover,40.7391,-114.0733,19.0,12,1,5.14,US,1619232645
310,Celestún,20.8667,-90.4,29.65,49,97,8.13,MX,1619232645
311,Cocobeach,1.0002,9.5823,26.04,83,100,1.81,GA,1619232646
312,Hangha,7.9411,-11.14,22.54,92,96,0.97,SL,1619232646
313,Serabu,7.7958,-12.0536,24.16,94,100,0.87,SL,1619232646
314,Bundaberg,-24.85,152.35,26.11,44,27,4.63,AU,1619232647
315,Katsuura,35.1333,140.3,21.11,51,75,1.54,JP,1619232647
316,Marshalltown,42.0494,-92.908,8.33,87,1,3.09,US,1619232564
317,Husavik,66.0449,-17.3389,2.0,93,0,1.54,IS,1619232597
318,Kuyanovo,55.8014,54.5372,6.75,93,100,4.3,RU,1619232648
319,Warrington,53.3925,-2.5802,8.33,61,100,2.06,GB,1619232407
320,Palmas,-10.2128,-48.3603,25.0,94,20,2.06,BR,1619232648
321,Oprişor,44.2833,23.0833,6.67,87,20,3.6,RO,1619232649
322,Rocha,-34.4833,-54.3333,16.5,96,79,3.58,UY,1619232567
323,Vila,42.0304,-8.1588,12.78,95,100,1.89,PT,1619232649
324,Qaqortoq,60.7167,-46.0333,4.0,65,0,1.03,GL,1619232650
325,Verkhnevilyuysk,63.4453,120.3167,0.51,91,100,2.62,RU,1619232650
326,Teya,60.3778,92.6267,3.69,78,29,1.28,RU,1619232650
327,Pozo Colorado,-23.4923,-58.7972,20.57,84,100,2.33,PY,1619232651
328,Oistins,13.0667,-59.5333,26.0,65,20,7.72,BB,1619232647
329,Sorong,-0.8833,131.25,28.8,73,73,5.04,ID,1619232651
330,Kuito,-12.3833,16.9333,16.34,66,92,1.49,AO,1619232652
331,Skibbereen,51.55,-9.2667,9.0,61,40,6.69,IE,1619232652
332,Port Orange,29.1383,-80.9956,21.11,64,1,2.06,US,1619232595
333,Hamilton,39.1834,-84.5333,12.0,62,90,1.54,US,1619232330
334,Panabá,21.2833,-88.2667,24.38,74,0,5.82,MX,1619232653
335,Saint Anthony,45.0205,-93.218,8.33,81,90,1.54,US,1619232651
336,Tiarei,-17.5333,-149.3333,28.0,74,40,3.6,PF,1619232653
337,Kununurra,-15.7667,128.7333,31.0,20,41,7.2,AU,1619232654
338,Leeuwarden,53.2014,5.8086,4.44,93,90,1.03,NL,1619232476
339,Huarmey,-10.0681,-78.1522,19.53,89,2,3.74,PE,1619232654
340,Tiksi,71.6872,128.8694,-7.63,82,100,7.54,RU,1619232654
341,Orlik,52.5178,99.825,-2.11,81,100,2.09,RU,1619232655
342,San Cristobal,7.7669,-72.225,28.0,74,20,1.54,VE,1619232655
343,La Ronge,55.1001,-105.2842,-2.0,37,65,3.09,CA,1619232656
344,Port Blair,11.6667,92.75,29.0,79,40,1.34,IN,1619232656
345,Dali,25.7,100.1833,23.01,30,20,2.61,CN,1619232656
346,Marzuq,14.4,46.4667,19.92,47,1,2.46,YE,1619232656
347,Mersing,2.4312,103.8405,26.0,83,40,3.6,MY,1619232657
348,Mossamedes,-15.1961,12.1522,24.95,82,29,2.5,AO,1619232657
349,Stornoway,58.2093,-6.3865,7.0,81,42,2.06,GB,1619232657
350,Diamantino,-14.4086,-56.4461,25.56,70,100,1.0,BR,1619232658
351,Ruska Poliana,49.417,31.9201,1.59,86,0,4.19,UA,1619232658
352,Cap Malheureux,-19.9842,57.6142,24.44,85,94,0.89,MU,1619232658
353,Tūkrah,32.5341,20.5791,23.44,24,76,12.22,LY,1619232659
354,Kushima,31.4583,131.2333,23.0,56,75,6.69,JP,1619232659
355,Havre-St-Pierre,50.2334,-63.5986,-1.0,100,40,2.57,CA,1619232659
356,Lodja,-3.4833,23.4333,20.02,99,100,0.77,CD,1619232660
357,Saint George,37.1041,-113.5841,25.0,10,1,5.14,US,1619232523
358,Grand Gaube,-20.0064,57.6608,24.44,85,93,0.89,MU,1619232660
359,Chokurdakh,70.6333,147.9167,-11.68,85,20,0.58,RU,1619232660
360,Yuanping,38.7153,112.7575,16.12,46,100,3.78,CN,1619232661
361,Tateyama,34.9833,139.8667,18.33,59,75,4.63,JP,1619232661
362,Raton,36.9034,-104.4391,6.0,65,1,7.72,US,1619232661
363,North Bend,43.4065,-124.2243,11.0,76,90,2.57,US,1619232662
364,Lebu,-37.6167,-73.65,11.58,89,86,4.74,CL,1619232662
365,Slobodskoy,58.7322,50.1772,5.32,87,31,3.16,RU,1619232662
366,Liusha,27.2098,108.59,15.57,97,100,1.99,CN,1619232663
367,Kulhudhuffushi,6.6221,73.07,28.79,73,50,3.36,MV,1619232663
368,Homer,59.6425,-151.5483,8.0,76,40,4.12,US,1619232619
369,Hettstedt,51.65,11.5,2.78,82,86,2.83,DE,1619232664
370,Codrington,-38.2667,141.9667,16.15,71,81,6.4,AU,1619232664
371,Atar,20.5169,-13.0499,24.44,16,0,2.86,MR,1619232371
372,Sayyan,15.1718,44.3244,13.52,44,0,0.69,YE,1619232662
373,Assiut,27.181,31.1837,17.0,55,0,5.14,EG,1619232379
374,Chernyshevskiy,63.0128,112.4714,0.61,85,100,3.8,RU,1619232435
375,Kalmunai,7.4167,81.8167,28.8,71,12,0.87,LK,1619232665
376,General Elizardo Aquino,-24.4333,-56.7,21.44,58,65,2.5,PY,1619232665
377,Charlottesville,38.0293,-78.4767,11.0,40,1,3.09,US,1619232425
378,Havelock,34.8791,-76.9013,16.67,62,1,2.57,US,1619232500
379,Laterza,40.6295,16.7997,11.0,100,75,4.63,IT,1619232666
380,Seagoville,32.6396,-96.5383,20.0,100,1,6.69,US,1619232643
381,Camopi,3.1655,-52.3158,22.52,99,100,0.91,GF,1619232666
382,Vaitape,-16.5167,-151.75,26.69,75,100,4.57,PF,1619232667
383,Vestmannaeyjar,63.4427,-20.2734,7.93,91,100,7.49,IS,1619232667
384,Tank,32.2217,70.3793,23.8,32,0,1.28,PK,1619232667
385,Tommot,58.9564,126.2925,-0.64,67,100,5.84,RU,1619232500
386,Half Moon Bay,37.4636,-122.4286,13.0,81,75,2.57,US,1619232668
387,Arys,42.4252,68.795,14.0,54,0,4.0,KZ,1619232668
388,Kenora,49.8167,-94.4337,-1.0,47,75,3.09,CA,1619232668
389,College,64.8569,-147.8028,16.0,21,20,2.06,US,1619232669
390,Sitka,57.0531,-135.33,15.0,23,20,4.63,US,1619232422
391,Hualmay,-11.0964,-77.6139,18.93,91,8,3.45,PE,1619232669
392,Thunder Bay,48.4001,-89.3168,9.0,71,90,4.12,CA,1619232670
393,Cao Bang,22.6667,106.25,24.63,96,100,1.55,VN,1619232670
394,Vardø,70.3705,31.1107,1.62,65,100,6.6,NO,1619232411
395,Yarmouth,41.7057,-70.2286,8.33,71,1,2.57,US,1619232670
396,Blahodatne,50.6637,24.2492,-0.94,96,42,3.87,UA,1619232671
397,Rinconada,19.35,-96.5167,27.0,83,20,2.57,MX,1619232671
398,Gambēla,8.25,34.5833,23.59,76,91,1.28,ET,1619232671
399,Bilgrām,27.1833,80.0333,31.45,22,2,3.12,IN,1619232672
400,Khuzhir,53.1939,107.3397,-0.28,70,100,6.87,RU,1619232672
401,Susanville,40.4163,-120.653,16.0,29,1,6.17,US,1619232672
402,Porgera,-5.4667,143.2,11.6,81,99,1.35,PG,1619232673
403,Waterloo,43.4668,-80.5164,10.0,43,20,4.12,CA,1619232587
404,Bam,29.106,58.357,27.94,12,0,2.94,IR,1619232398
405,Riverton,40.5219,-111.9391,13.0,35,1,1.35,US,1619232673
406,Alappuzha,9.49,76.3264,28.35,76,97,2.27,IN,1619232674
407,Kilindoni,-7.9139,39.6668,25.64,83,79,9.75,TZ,1619232674
408,Mattru,7.6244,-11.8332,23.99,94,100,1.02,SL,1619232674
409,Meadow Lake,34.8014,-106.5436,14.0,30,20,5.14,US,1619232428
410,Marabá,-5.3686,-49.1178,22.43,97,75,0.62,BR,1619232668
411,Lüshunkou,38.8,121.2667,19.0,63,40,2.0,CN,1619232675
412,Balkhash,46.844,74.9804,3.0,41,0,8.0,KZ,1619232675
413,Antofagasta,-23.65,-70.4,16.0,82,40,3.09,CL,1619232363
414,Laas,46.6166,10.7002,6.67,69,0,1.54,IT,1619232676
415,Ahipara,-35.1667,173.1667,18.83,65,45,4.2,NZ,1619232676
416,Sept-Îles,50.2001,-66.3821,1.11,100,100,1.54,CA,1619232676
417,Myski,53.709,87.8014,3.61,66,100,1.18,RU,1619232677
418,The Valley,18.217,-63.0578,26.11,78,20,3.09,AI,1619232677
419,Kuching,1.55,110.3333,30.0,74,20,1.03,MY,1619232677
420,Bahía Blanca,-38.7196,-62.2724,16.84,68,99,2.38,AR,1619232572
421,Gushikawa,26.3544,127.8686,20.0,94,90,9.26,JP,1619232678
422,Canindé,-4.3589,-39.3117,22.06,94,60,0.42,BR,1619232678
423,Buraidah,26.326,43.975,24.0,23,0,3.09,SA,1619232679
424,Tuatapere,-46.1333,167.6833,11.11,92,56,1.26,NZ,1619232609
425,Ikalamavony,-21.15,46.5833,16.25,89,3,2.53,MG,1619232679
426,Adrar,20.5022,-10.0711,23.72,15,1,4.0,MR,1619232679
427,Kiryat Gat,31.61,34.7642,18.89,100,37,1.12,IL,1619232497
428,Cascais,38.6979,-9.4215,16.67,93,8,6.25,PT,1619232397
429,Comodoro Rivadavia,-45.8667,-67.5,8.0,81,0,2.06,AR,1619232440
430,Marmaris,36.855,28.2742,17.0,82,0,2.57,TR,1619232504
431,Washington,47.5001,-120.5015,17.0,25,1,5.14,US,1619232362
432,Paka,4.6374,103.4368,28.0,83,20,1.03,MY,1619232680
433,Nokia,61.4667,23.5,1.11,93,75,2.57,FI,1619232681
434,Portland,45.5234,-122.6762,14.44,57,100,0.45,US,1619232531
435,Labuan,5.2767,115.2417,29.0,84,40,1.54,MY,1619232681
436,Nanortalik,60.1432,-45.2371,1.54,91,10,1.99,GL,1619232681
437,Banting,2.8167,101.5,28.0,83,20,2.49,MY,1619232682
438,Stonewall,50.1344,-97.3268,-2.0,34,75,4.12,CA,1619232682
439,Kieta,-6.2167,155.6333,28.81,68,74,1.79,PG,1619232682
440,Brownsville,25.9018,-97.4975,26.0,83,90,4.63,US,1619232683
441,Hambantota,6.1241,81.1185,28.24,71,7,1.8,LK,1619232683
442,Zelenogorskiy,55.0333,87.0,3.0,35,0,4.0,RU,1619232683
443,Lagan,45.3929,47.3707,13.14,61,100,1.96,RU,1619232684
444,Smoky Lake,54.1169,-112.4686,2.0,29,48,2.06,CA,1619232684
445,Manaure,11.7751,-72.4445,26.99,73,16,7.14,CO,1619232684
446,Terney,45.0503,136.6092,13.22,59,100,5.14,RU,1619232685
447,Pāvugada,14.1,77.2667,27.91,53,18,3.81,IN,1619232685
448,Tura,25.5198,90.2201,31.73,21,12,3.02,IN,1619232685
449,Upernavik,72.7868,-56.1549,-2.22,88,100,2.03,GL,1619232686
450,Oildale,35.4197,-119.0195,26.0,24,1,5.66,US,1619232686
451,Araouane,18.9048,-3.5265,29.56,12,7,3.33,ML,1619232686
452,Leningradskiy,69.3833,178.4167,-1.51,86,94,2.92,RU,1619232687
453,Strezhevoy,60.7333,77.5889,4.0,48,75,3.0,RU,1619232688
454,Santo Domingo,18.5001,-69.9886,26.11,83,40,1.21,DO,1619232418
455,Thurso,58.5927,-3.5259,6.0,87,63,2.57,GB,1619232688
456,Dingle,10.9995,122.6711,33.29,49,91,3.5,PH,1619232689
457,Alyangula,-13.8483,136.4192,31.0,48,100,3.6,AU,1619232689
458,Envira,-7.3,-70.2167,22.16,98,75,1.16,BR,1619232689
459,Hengyang,26.8881,112.615,25.86,72,45,3.51,CN,1619232690
460,Saint-François,46.4154,3.9054,5.56,81,0,1.03,FR,1619232690
461,Fort Nelson,58.8053,-122.7002,3.0,35,40,3.6,CA,1619232690
462,Irsha,55.9269,94.7911,3.57,55,75,5.97,RU,1619232691
463,Waddān,29.1614,16.139,18.06,58,4,7.37,LY,1619232691
464,Lusaka,-15.4067,28.2871,14.17,80,2,2.52,ZM,1619232691
465,Rincon,32.296,-81.2354,17.0,67,40,2.57,US,1619232692
466,Kovernino,57.1253,43.8142,7.43,85,59,3.55,RU,1619232692
467,Yashkino,55.8736,85.4265,4.44,30,0,2.0,RU,1619232692
468,Dogondoutchi,13.6393,4.0287,29.8,9,88,1.93,NE,1619232692
469,Pisco,-13.7,-76.2167,19.0,82,0,1.54,PE,1619232693
470,San Isidro,-12.1167,-77.05,19.0,82,0,4.63,PE,1619232694
471,Bhainsdehi,21.6467,77.6325,30.27,15,99,3.91,IN,1619232694
472,Yuxia,34.0615,108.6291,15.0,88,90,8.0,CN,1619232694
473,Sørland,67.667,12.6934,2.08,59,98,9.7,NO,1619232695
474,Antalaha,-14.9003,50.2788,22.1,91,97,2.93,MG,1619232695
475,Xining,36.6167,101.7667,6.57,89,100,2.4,CN,1619232695
476,Iranshahr,27.2025,60.6848,25.0,20,0,2.06,IR,1619232696
477,Preston,53.7667,-2.7167,8.33,72,100,1.94,GB,1619232696
478,Am Timan,11.0297,20.2827,27.76,55,100,3.29,TD,1619232697
479,Gonder,12.6,37.4667,17.17,58,94,0.71,ET,1619232697
480,Cumberland,35.0502,-78.8664,14.44,54,1,3.6,US,1619232697
481,St. George's,12.0564,-61.7485,27.0,78,20,7.2,GD,1619232698
482,Las Choapas,17.9333,-94.0833,26.57,62,83,2.15,MX,1619232698
483,Berbera,10.4396,45.0143,27.65,85,13,0.56,SO,1619232547
484,Gold Coast,-28.0,153.4333,23.89,46,3,4.12,AU,1619232688
485,Sharjah city,25.3573,55.4033,27.0,40,0,2.06,AE,1619232699
486,Āsosa,10.0667,34.5333,18.41,73,35,2.26,ET,1619232699
487,Chul'man,56.8479,124.9104,-0.53,90,100,8.05,RU,1619232699
488,Kaohsiung City,22.6163,120.3133,29.0,61,40,4.63,TW,1619232361
489,Sambava,-14.2667,50.1667,22.56,86,95,3.73,MG,1619232700
490,Rome,43.2128,-75.4557,9.44,57,1,2.62,US,1619232504
491,Constitución,-35.3333,-72.4167,12.77,75,0,3.66,CL,1619232460
492,Livenka,50.4491,38.2959,6.56,91,100,6.63,RU,1619232701
493,Kailua,21.4022,-157.7394,27.0,65,75,5.66,US,1619232701
494,São Gabriel da Cachoeira,-0.1303,-67.0892,23.07,97,85,0.67,BR,1619232701
495,Rundu,-17.9333,19.7667,13.12,49,0,2.09,NA,1619232702
496,Shenjiamen,29.9576,122.298,16.26,92,100,2.91,CN,1619232702
497,Sakakah,29.9697,40.2064,23.0,14,0,2.57,SA,1619232572
498,Perth,-31.9333,115.8333,27.78,28,0,4.63,AU,1619232539
499,Conakry,9.538,-13.6773,26.63,70,84,2.52,GN,1619232702
500,Morehead,37.2711,-87.1764,13.0,62,90,1.54,US,1619232703
501,Kasongo-Lunda,-6.4667,16.8167,21.2,99,100,1.16,CD,1619232703
502,Skjervøy,70.0311,20.9714,0.3,72,99,3.61,NO,1619232703
503,Mata,40.683,-7.4592,13.33,93,100,3.32,PT,1619232704
504,Najrān,17.4924,44.1277,21.0,21,91,2.06,SA,1619232532
505,Yerbogachën,61.2767,108.0108,3.73,67,21,4.11,RU,1619232704
506,Krasnyy Oktyabr',56.1167,38.8833,4.31,96,100,2.62,RU,1619232705
507,Agnibilékrou,7.1344,-3.2047,22.0,97,89,1.34,CI,1619232705
508,Pontiac,42.6389,-83.2911,12.0,35,40,2.06,US,1619232705
509,Bairiki Village,1.3292,172.9752,31.0,70,20,3.6,KI,1619232706
510,Chara,56.9064,118.2631,0.74,78,18,2.25,RU,1619232707
511,Sawtell,-30.3833,153.1,22.0,53,0,4.12,AU,1619232707
512,Hailin,44.5833,129.4167,7.7,77,100,4.81,CN,1619232708
513,Gaoua,10.2992,-3.2508,28.36,50,22,3.02,BF,1619232708
514,Kibungo,-2.1597,30.5427,19.0,88,75,2.06,RW,1619232708
515,Tra Vinh,9.9347,106.3453,32.02,53,85,2.73,VN,1619232709
516,Mehamn,71.0357,27.8492,-0.03,72,99,6.42,NO,1619232709
517,Salinas,36.6777,-121.6555,13.0,67,90,5.66,US,1619232709
518,Mwinilunga,-11.7358,24.4293,14.89,89,62,1.28,ZM,1619232710
519,Ballina,-28.8667,153.5667,23.0,56,75,3.6,AU,1619232710
520,Cartagena,10.3997,-75.5144,27.0,89,20,3.09,CO,1619232701
521,Caibarién,22.5206,-79.4669,25.0,44,9,4.12,CU,1619232711
522,Coihueco,-36.6167,-71.8333,12.0,100,32,1.03,CL,1619232712
523,Palmer,42.1584,-72.3287,11.0,35,1,1.54,US,1619232712
524,Camaná,-16.6228,-72.7111,19.63,82,47,3.1,PE,1619232714
525,Port Moresby,-9.4431,147.1797,32.0,66,40,7.72,PG,1619232714
526,Bonavista,48.6499,-53.1147,3.33,80,13,3.09,CA,1619232714
527,Kawalu,-7.3817,108.2082,28.75,60,5,1.61,ID,1619232715
528,Shaoyang,27.2315,111.4525,20.82,84,94,3.74,CN,1619232715
529,Yulara,-25.2406,130.9889,22.0,35,16,6.17,AU,1619232703
530,Vestmanna,62.1564,-7.1664,6.0,100,90,2.57,FO,1619232487
531,Rockport,28.0206,-97.0544,24.0,100,90,3.6,US,1619232717
532,North Platte,41.1239,-100.7654,10.0,53,1,7.2,US,1619232717
533,Kabompo,-13.5927,24.2008,18.04,66,70,2.24,ZM,1619232718
534,Missoula,47.0166,-113.8009,9.0,57,1,3.09,US,1619232718
535,Tabuk,17.4189,121.4443,30.14,50,6,2.5,PH,1619232718
536,Belmonte,-15.8631,-38.8828,23.0,88,40,1.03,BR,1619232460
537,Ust-Kuyga,70.0167,135.6,-7.96,83,35,3.54,RU,1619232719
538,Punta de Bombón,-17.1717,-71.7931,19.29,78,21,2.38,PE,1619232719
539,La Bañeza,42.3003,-5.8977,11.0,76,0,2.06,ES,1619232719
540,Galesong,-5.3166,119.3661,31.0,70,20,1.54,ID,1619232720
541,Jumla,29.2747,82.1838,13.52,37,42,1.44,NP,1619232671
542,Przhevalskoye,55.5093,31.8482,-0.92,94,18,1.81,RU,1619232720
543,Dillon,34.4166,-79.3712,13.0,58,1,2.57,US,1619232720
544,Lethem,3.3803,-59.7968,25.72,75,88,5.38,GY,1619232482
545,Uray,60.1247,64.7758,5.78,82,96,1.59,RU,1619232721
546,La Macarena,2.1837,-73.7849,22.91,90,25,0.32,CO,1619232721
547,Jablah,35.3614,35.9256,20.1,47,79,3.16,SY,1619232722
548,Saint-Louis,16.3333,-15.0,23.44,37,35,5.51,SN,1619232722
549,Tessalit,20.1986,1.0114,28.72,8,0,3.07,ML,1619232638
550,Mlowo,-9.0,32.9833,12.96,95,72,1.27,TZ,1619232722
551,Hūn,29.1268,15.9477,17.8,58,5,7.44,LY,1619232723
552,Vao,-22.6667,167.4833,24.37,74,70,4.65,NC,1619232723
553,Were Īlu,10.6,39.4333,12.25,75,100,1.91,ET,1619232724
554,Warrnambool,-38.3833,142.4833,14.44,93,97,2.68,AU,1619232724
555,Andenes,69.3143,16.1194,1.67,60,75,5.66,NO,1619232724
556,Ishigaki,24.3448,124.1572,25.0,69,20,9.77,JP,1619232725
557,Itumbiara,-18.4192,-49.2153,18.8,47,0,1.2,BR,1619232725
558,El Dorado,38.7666,-120.5177,15.56,55,1,2.57,US,1619232725
559,Boende,-0.2167,20.8667,21.72,97,100,1.9,CD,1619232726
560,Avera,33.194,-82.5271,15.0,55,1,2.06,US,1619232726
561,Madison,34.7334,-86.5667,17.0,48,90,2.06,US,1619232727
562,Leshukonskoye,64.8989,45.7622,7.42,83,84,3.82,RU,1619232727
563,Arrifes,37.7667,-25.7,15.0,67,75,6.69,PT,1619232727
564,Ulaangom,49.9811,92.0667,2.7,56,56,1.65,MN,1619232728
565,Blantyre,-15.785,35.0085,15.01,82,0,1.47,MW,1619232728
566,Fairbanks,64.8378,-147.7164,16.0,23,1,4.12,US,1619232728
